     2.11           OBSERVATION DATA    G (GPS)             RINEX VERSION / TYPE
HEADER CHANGED BY EPN CB ON 2015-06-05                      COMMENT
TO BE CONFORM WITH THE INFORMATION IN                       COMMENT
ftp://epncb.oma.be/pub/station/log/bor1.log                 COMMENT
                                                            COMMENT
teqc  2013Mar15     M.LEHMANN/NetRS     20150318 00:10:19UTCPGM / RUN BY / DATE
Linux 2.4.21-27.ELsmp|Opteron|gcc -static|Linux x86_64|=+   COMMENT
teqc  2013Mar15                         20150318 00:10:18UTCCOMMENT
BIT 2 OF LLI FLAGS DATA COLLECTED UNDER A/S CONDITION       COMMENT
BOR1                                                        MARKER NAME
12205M002                                                   MARKER NUMBER
automatic           SRC PAS BOROWIEC                        OBSERVER / AGENCY
4623116529          TRIMBLE NETRS       1.2-0  Apr 26 2007  REC # / TYPE / VERS
418                 AOAD/M_T        NONE                    ANT # / TYPE
  3738358.5958  1148173.5785  5021815.7483                  APPROX POSITION XYZ
        0.0624        0.0000        0.0000                  ANTENNA: DELTA H/E/N
     1     1                                                WAVELENGTH FACT L1/2
     5    C1    L1    L2    P2    P1                        # / TYPES OF OBSERV
    16                                                      LEAP SECONDS
 SNR is mapped to RINEX snr flag value [0-9]                COMMENT
  L1 & L2: min(max(int(snr_dBHz/6), 0), 9)                  COMMENT
  2015     3    17     0     0    0.0000000     GPS         TIME OF FIRST OBS
                                                            END OF HEADER
 15  3 17  0  0  0.0000000  0  9G21G27G07G18G19G22G13G16G15
  21615635.4844  -19295474.97648 -14310934.01847  21615629.3404
  21230085.0554  -20441026.37448 -15874387.33847  21230081.7384
  24292098.8364   -6818171.21846  -4935272.95044  24292093.3834
  21551347.6724  -21291274.11948 -16163569.26346  21551342.1454
  23440508.6334   -9817008.96247  -7598127.56345  23440502.3244
  22853059.0004  -12847427.52847  -9954817.92245  22853052.2114
  24691781.0864   -3042918.63946   -604138.15843  24691777.6454
  20961479.9924  -21841133.65948 -15936274.38147  20961474.3404
  24295758.6804   -5251418.63947  -3598914.15344  24295753.9024
 15  3 17  0  0 30.0000000  0  9G21G27G07G18G19G22G13G16G15
  21624353.1884  -19249664.60648 -14275237.64047  21624347.1374
  21217966.0704  -20504711.03148 -15924011.73847  21217962.9694
  24289613.0164   -6831235.53246  -4945452.92844  24289607.1134
  21543474.9534  -21332644.04748 -16195805.55147  21543469.5864
  23421941.0944   -9914579.87547  -7674156.82645  23421934.8674
  22834822.8984  -12943256.69447 -10029489.96245  22834816.3794
  24688577.8674   -3059757.33946   -617259.22143  24688573.3914
  20965919.8914  -21817802.24448 -15918094.06547  20965914.1914
  24286903.7424   -5297950.15646  -3635172.39744  24286899.4804
 15  3 17  0  1  0.0000000  0  9G21G27G07G18G19G22G13G16G15
  21633120.4304  -19203590.25548 -14239335.55947  21633114.4734
  21205905.7194  -20568088.46248 -15973396.73747  21205902.4184
  24287233.9304   -6843734.51546  -4955192.39344  24287228.6914
  21535690.2894  -21373553.58448 -16227683.09847  21535684.8874
  23403400.1884  -10012013.86646  -7750079.41745  23403393.4414
  22816631.0634  -13038854.42147 -10103981.65645  22816624.7194
  24685481.0164   -3076030.54546   -629939.64543  24685476.8754
  20970471.9064  -21793880.12648 -15899453.46847  20970466.2114
  24278135.8524   -5344022.48546  -3671072.83544  24278132.1524
 15  3 17  0  1 30.0000000  0  9G21G27G07G18G19G22G13G16G15
  21641942.3524  -19157232.67148 -14203212.77747  21641935.9574
  21193907.9614  -20631136.50348 -16022525.07447  21193904.7304
  24284966.9694   -6855647.29346  -4964475.09544  24284961.6604
  21527997.1024  -21413981.01448 -16259184.97247  21527991.6604
  23384889.2504  -10109289.14946  -7825878.29745  23384883.4064
  22798488.3524  -13134197.61747 -10178275.01845  22798481.1684
  24682495.6334   -3091716.35846   -642162.35443  24682491.1884
  20975140.6414  -21769347.17648 -15880336.90447  20975134.5904
  24269460.7114   -5389612.97346  -3706597.85144  24269456.0474
 15  3 17  0  2  0.0000000  0  9G21G27G07G18G19G22G13G16G15
  21650815.7814  -19110602.69148 -14166877.72847  21650809.5944
  21181971.4694  -20693863.28648 -16071403.07847  21181968.3244
  24282809.6484   -6866983.92146  -4973308.84144  24282803.8404
  21520394.0084  -21453935.38248 -16290318.22547  21520388.5554
  23366407.3444  -10206413.60346  -7901559.66145  23366400.9344
  22780391.6724  -13229294.12247 -10252376.16145  22780385.0554
  24679620.0004   -3106823.77146   -653934.36443  24679615.8754
  20979923.3524  -21744213.76248 -15860752.43447  20979917.6484
  24260875.5554   -5434728.95046  -3741753.11544  24260870.9614
 15  3 17  0  2 30.0000000  0  9G21G27G07G18G19G22G13G16G15
  21659740.6804  -19063701.68448 -14130331.49447  21659734.7664
  21170097.4384  -20756267.45048 -16120029.69847  21170093.8874
  24280762.4614   -6877744.21746  -4981693.50744  24280756.4964
  21512881.3834  -21493415.02648 -16321081.55947  21512876.0354
  23347954.2734  -10303386.12746  -7977122.62045  23347947.5124
  22762343.0314  -13324141.16847 -10326282.90345  22762335.8984
  24676855.5164   -3121351.91946   -665255.00943  24676851.5314
  20984820.1804  -21718480.51148 -15840700.55847  20984814.8444
  24252381.0314   -5479368.73846  -3776537.35144  24252376.0084
 15  3 17  0  3  0.0000000  0  9G21G27G07G18G19G22G13G16G15
  21668717.2034  -19016531.16148 -14093575.24946  21668710.7584
  21158282.4924  -20818347.62948 -16168403.84147  21158280.0864
  24278824.0864   -6887928.04846  -4989628.95944  24278819.0744
  21505459.0234  -21532419.69448 -16351474.79646  21505454.1374
  23329530.0944  -10400205.33646  -8052566.11445  23329523.6914
  22744342.2734  -13418736.73447 -10399993.69445  22744335.2544
  24674202.5084   -3135300.48046   -676123.99843  24674196.7424
  20989831.0474  -21692148.26548 -15820181.93547  20989825.2854
  24243977.4304   -5523530.24546  -3810948.86944  24243972.4184
 15  3 17  0  3 30.0000000  0  9G21G27G07G18G19G22G13G16G15
  21677744.6954  -18969090.55148 -14056608.54447  21677738.3914
  21146531.6174  -20880101.52848 -16216523.74347  21146528.6454
  24276995.2194   -6897534.74046  -4997114.65044  24276990.8834
  21498127.3444  -21570947.42548 -16381496.38747  21498122.0164
  23311135.6334  -10496869.00647  -8127888.42445  23311129.0434
  22726389.4064  -13513077.98847 -10473506.33345  22726382.2734
  24671658.9534   -3148667.55946   -686539.84943  24671653.7344
  20994955.8054  -21665217.54948 -15799196.97047  20994950.4654
  24235664.8914   -5567210.49946  -3844985.36144  24235660.7424
 15  3 17  0  4  0.0000000  0  9G21G27G07G18G19G22G13G16G15
  21686823.2504  -18921380.81848 -14019432.13747  21686817.1994
  21134843.2114  -20941527.19348 -16264387.88947  21134839.4344
  24275278.0704   -6906563.60846  -5004150.15344  24275272.6374
  21490886.7814  -21608996.58948 -16411145.06147  21490881.2304
  23292770.7814  -10593375.26947  -8203088.08745  23292764.6024
  22708485.9144  -13607162.49347 -10546818.90445  22708478.9884
  24669226.6334   -3161452.17346   -696501.85843  24669220.6174
  21000194.6484  -21637688.43748 -15777745.72647  21000188.7504
  24227443.9224   -5610407.30746  -3878645.13244  24227439.9494
 15  3 17  0  4 30.0000000  0  9G21G27G07G18G19G22G13G16G15
  21695952.7194  -18873405.06848 -13982048.44647  21695946.5744
  21123216.1094  -21002624.72948 -16311996.34447  21123212.8324
  24273668.5634   -6915016.15246  -5010736.51443  24273664.1334
  21483737.3984  -21646568.05048 -16440421.51147  21483732.1254
  23274436.1884  -10689724.42246  -8278165.32745  23274428.9884
  22690631.5784  -13700988.94647 -10619930.41245  22690624.1644
  24666904.0314   -3173655.35847   -706010.83443  24666899.6564
  21005546.4304  -21609563.61248 -15755830.28547  21005540.2544
  24219316.6564   -5653119.97447  -3911927.66344  24219311.8164
 15  3 17  0  5  0.0000000  0  9G21G27G07G18G19G22G13G16G15
  21705133.0634  -18825163.67448 -13944457.75846  21705126.9384
  21111652.7344  -21063392.15348 -16359347.56947  21111648.9694
  24272170.4454   -6922892.10546  -5016873.58743  24272164.6684
  21476678.6804  -21683660.52848 -16469324.72847  21476673.2424
  23256132.3834  -10785914.34047  -8353118.49045  23256125.0824
  22672825.7584  -13794554.59547 -10692838.65545  22672819.3834
  24664692.9844   -3185275.39347   -715065.42643  24664687.8364
  21011011.6954  -21580842.88348 -15733450.51947  21011005.9064
  24211281.7274   -5695346.03147  -3944831.03944  24211277.6804
 15  3 17  0  5 30.0000000  0  9G21G27G07G18G19G22G13G16G15
  21714363.5314  -18776656.71048 -13906660.13247  21714357.4884
  21100152.2194  -21123827.13149 -16406439.75147  21100148.7344
  24270781.4384   -6930190.66446  -5022560.71244  24270776.2544
  21469711.6484  -21720271.98048 -16497853.11747  21469706.4574
  23237858.0474  -10881943.07747  -8427946.04145  23237851.6604
  22655071.2894  -13887856.63047 -10765541.49845  22655064.1024
  24662592.8914   -3196310.92946   -723664.49143  24662587.2234
  21016590.5394  -21551526.36248 -15710606.47947  21016584.8244
  24203339.5474   -5737082.81847  -3977353.20044  24203334.8244
 15  3 17  0  6  0.0000000  0  9G21G27G07G18G19G22G13G16G15
  21723644.2344  -18727885.70348 -13868656.75746  21723638.2584
  21088714.9924  -21183928.31448 -16453271.83647  21088712.1254
  24269503.1174   -6936911.90646  -5027798.07344  24269497.3404
  21462836.5314  -21756401.86848 -16526006.25747  21462831.2584
  23219615.4454  -10977809.00647  -8502646.73745  23219608.8284
  22637367.3674  -13980893.00647 -10838037.34945  22637359.8284
  24660604.0704   -3206761.56546   -731807.85143  24660598.3834
  21022282.5004  -21521614.98548 -15687298.92247  21022276.8364
  24195490.5004   -5778328.45547  -4009492.62544  24195485.2344
 15  3 17  0  6 30.0000000  0  9G21G27G07G18G19G22G13G16G15
  21732974.8834  -18678851.86848 -13830448.59047  21732968.9734
  21077342.2504  -21243694.40048 -16499842.80947  21077339.2894
  24268333.1644   -6943056.33846  -5032585.91743  24268327.7814
  21456052.9694  -21792049.51148 -16553783.62647  21456047.9144
  23201403.6094  -11073511.20847  -8577219.86345  23201397.0594
  22619713.7664  -14073661.50347 -10910324.46445  22619707.0434
  24658726.7734   -3216627.02546   -739495.26843  24658720.7154
  21028087.1484  -21491109.90748 -15663528.75147  21028081.9734
  24187734.7424   -5819081.01647  -4041247.82643  24187729.5824
 15  3 17  0  7  0.0000000  0  9G21G27G07G18G19G22G13G16G15
  21742356.1174  -18629555.19348 -13792035.60447  21742349.8794
  21066033.4384  -21303122.70048 -16546150.56547  21066030.3014
  24267273.7114   -6948622.77046  -5036923.29743  24267268.3984
  21449361.8834  -21827212.34248 -16581183.21647  21449356.5744
  23183224.0314  -11169046.75647  -8651663.12745  23183217.7304
  22602111.5634  -14166158.68347 -10982400.15846  22602105.0664
  24656961.0944   -3225905.43946   -746725.17743  24656954.9614
  21034005.4614  -21460010.98348 -15639295.84847  21033999.4344
  24180074.1884   -5859337.50347  -4072616.45444  24180070.1564
 15  3 17  0  7 30.0000000  0  9G21G27G07G18G19G22G13G16G15
  21751786.4534  -18579997.87248 -13753419.52446  21751780.3984
  21054788.8284  -21362213.06348 -16592194.98647  21054785.3524
  24266323.5784   -6953612.73346  -5040811.59043  24266318.7234
  21442762.4534  -21861891.38148 -16608205.82747  21442756.9224
  23165075.3524  -11264415.68246  -8725976.55145  23165069.3324
  22584562.4614  -14258383.82347 -11054263.86446  22584554.8794
  24655307.0314   -3234597.27646   -753497.98943  24655300.7704
  21040035.7424  -21428320.46748 -15614601.94347  21040030.2154
  24172508.4144   -5899097.47647  -4103598.19344  24172504.1294
 15  3 17  0  8  0.0000000  0  9G21G27G07G18G19G22G13G16G15
  21761266.3444  -18530181.03148 -13714601.21446  21761260.2854
  21043608.9384  -21420963.85948 -16637974.82447  21043605.6414
  24265484.0944   -6958025.91346  -5044250.43544  24265478.9104
  21436255.6334  -21896085.42548 -16634850.52247  21436250.1764
  23146959.8594  -11359616.38047  -8800158.90745  23146952.9264
  22567064.2814  -14350334.35347 -11125913.58946  22567057.6684
  24653764.4534   -3242702.03246   -759813.43743  24653758.9064
  21046178.7894  -21396039.30448 -15589447.80447  21046172.9384
  24165037.5474   -5938358.60647  -4134191.19544  24165033.0554
 15  3 17  0  8 30.0000000  0  9G21G27G07G18G19G22G13G16G15
  21770795.4454  -18480105.17048 -13675581.07246  21770789.2814
  21032493.9224  -21479373.06648 -16683488.47147  21032490.8524
  24264755.2504   -6961862.17946  -5047239.75244  24264748.8554
  21429841.2504  -21929793.40748 -16661116.47347  21429835.4734
  23128876.3754  -11454646.77147  -8874208.53245  23128869.9574
  22549619.4454  -14442007.72647 -11197347.34646  22549613.1254
  24652334.2274   -3250218.74746   -765670.59643  24652328.2704
  21052433.8674  -21363167.83848 -15563833.69147  21052428.3284
  24157661.7894   -5977118.52147  -4164393.66144  24157657.8284
 15  3 17  0  9  0.0000000  0  9G21G27G07G18G19G22G13G16G15
  21780373.3834  -18429771.53048 -13636360.05746  21780367.5274
  21021444.1954  -21537439.42548 -16728734.97547  21021441.1454
  24264134.2504   -6965121.91646  -5049779.78444  24264128.6884
  21423519.5554  -21963014.39748 -16687002.94047  21423513.8404
  23110825.2894  -11549505.46547  -8948124.35345  23110818.9384
  22532227.7814  -14533401.83247 -11268563.50046  22532221.7774
  24651015.7814   -3257147.10046   -771069.33342  24651010.1564
  21058801.4454  -21329707.45148 -15537760.66847  21058795.8554
  24150381.3754   -6015375.72946  -4194204.41244  24150378.0474
 15  3 17  0  9 30.0000000  0  9G21G27G07G18G19G22G13G16G15
  21790000.6804  -18379180.66448 -13596938.60846  21789994.7974
  21010460.4844  -21595160.75748 -16773712.62447  21010457.1684
  24263624.0314   -6967804.81746  -5051870.34344  24263618.6374
  21417290.5864  -21995747.13948 -16712508.96547  21417285.0634
  23092807.2814  -11644190.88947  -9021905.19045  23092800.4844
  22514890.1724  -14624513.62947 -11339559.66546  22514883.1134
  24649809.9454   -3263485.79546   -776008.57942  24649803.7774
  21065280.6334  -21295658.08148 -15511228.71247  21065275.0744
  24143197.8284   -6053127.56146  -4223621.36244  24143193.6094
 15  3 17  0 10  0.0000000  0  9G21G27G07G18G19G22G13G16G15
  21799676.3594  -18328334.97048 -13557318.60546  21799670.4144
  20999542.2504  -21652536.13748 -16818420.71847  20999539.0314
  24263223.3674   -6969911.71846  -5053512.04944  24263218.1564
  21411155.1254  -22027991.68348 -16737634.57046  21411149.6454
  23074821.9454  -11738701.69647  -9095549.95945  23074815.7344
  22497606.0234  -14715341.52247 -11410334.61946  22497598.9264
  24648715.6804   -3269235.10246   -780488.51843  24648709.7854
  21071871.5784  -21261021.69948 -15484239.34347  21071866.2934
  24136109.9534   -6090373.10146  -4252643.77943  24136105.4734
 15  3 17  0 10 30.0000000  0  9G21G27G07G18G19G22G13G16G15
  21809400.5004  -18277234.07148 -13517499.72046  21809394.1644
  20988690.2734  -21709563.58248 -16862857.68247  20988687.0514
  24262931.5704   -6971442.20846  -5054704.67244  24262927.5784
  21405111.6804  -22059746.39548 -16762378.49147  21405106.4064
  23056871.3204  -11833035.94247  -9169057.16445  23056864.5704
  22480376.5314  -14805883.03047 -11480886.39946  22480369.5704
  24647733.5234   -3274393.97646   -784508.39442  24647727.9304
  21078574.5004  -21225798.61748 -15456792.79947  21078569.1134
  24129118.6094   -6127109.86446  -4281269.78943  24129114.2774
 15  3 17  0 11  0.0000000  0  9G21G27G07G18G19G22G13G16G15
  21819172.7664  -18225879.12848 -13477482.87746  21819166.8754
  20977904.7734  -21766241.66748 -16907022.41047  20977901.9024
  24262750.4844   -6972397.01246  -5055448.69344  24262744.2854
  21399162.5864  -22091010.40448 -16786740.04347  21399156.9844
  23038953.8364  -11927192.28347  -9242425.70645  23038946.8594
  22463201.7894  -14896136.02547 -11551213.37346  22463195.0394
  24646864.0084   -3278961.94446   -788067.89942  24646859.3094
  21085388.6024  -21189990.19348 -15428890.15247  21085382.9844
  24122224.4694   -6163336.06146  -4309497.99343  24122219.3984
 15  3 17  0 11 30.0000000  0  9G21G27G07G18G19G22G13G16G15
  21828993.5164  -18174270.85548 -13437268.65346  21828987.8204
  20967185.8674  -21822568.44948 -16950913.39947  20967182.7274
  24262678.3594   -6972775.69446  -5055743.77344  24262672.6804
  21393306.8984  -22121783.06148 -16810718.72047  21393301.1804
  23021070.1644  -12021168.79047  -9315654.13345  23021063.5554
  22446082.6024  -14986097.55247 -11621313.22146  22446075.6174
  24646107.8134   -3282938.73646   -791166.66943  24646103.0314
  21092313.9844  -21153597.45148 -15400532.17847  21092308.1884
  24115428.9304   -6199049.62746  -4337326.72943  24115422.4494
 15  3 17  0 12  0.0000000  0  9G21G27G07G18G19G22G13G16G15
  21838862.3204  -18122411.25148 -13396858.58046  21838856.1024
  20956534.7584  -21878542.85248 -16994529.80647  20956531.4344
  24262715.6174   -6972579.06846  -5055590.52644  24262710.8554
  21387544.3834  -22152063.74048 -16834314.03447  21387539.0004
  23003221.9224  -12114964.48647  -9388741.67245  23003214.5274
  22429019.3134  -15075766.09048 -11691184.78346  22429012.5124
  24645463.8914   -3286323.93145   -793804.48042  24645458.6334
  21099350.3364  -21116621.09748 -15371719.45047  21099344.5204
  24108730.7584   -6234249.00346  -4364754.80843  24108725.1334
 15  3 17  0 12 30.0000000  0  9G21G27G07G18G19G22G13G16G15
  21848778.1954  -18070301.36348 -13356253.47646  21848772.2274
  20945950.0704  -21934163.95848 -17037870.92347  20945947.1174
  24262861.6804   -6971807.93346  -5054989.56443  24262857.4774
  21381875.6724  -22181852.48948 -16857526.03247  21381870.3714
  22985408.1724  -12208578.30347  -9461687.48045  22985401.2464
  22412012.0474  -15165139.77048 -11760826.57046  22412005.2774
  24644932.3364   -3289117.94146   -795981.66642  24644926.5394
  21106497.2584  -21079063.32448 -15342453.66547  21106491.8984
  24102130.6884   -6268933.17347  -4391781.36944  24102126.1174
 15  3 17  0 13  0.0000000  0  9G21G27G07G18G19G22G13G16G15
  21858742.0634  -18017942.32448 -13315454.23746  21858736.1524
  20935433.4534  -21989429.50448 -17080934.98547  20935430.1954
  24263117.7114   -6970461.98846  -5053940.76444  24263113.3204
  21376301.1644  -22211148.19248 -16880353.83547  21376295.5864
  22967628.4614  -12302007.89247  -9534489.72945  22967621.7504
  22395061.3284  -15254215.84947 -11830236.47546  22395054.1414
  24644511.9224   -3291319.56546   -797697.22242  24644507.2114
  21113754.5784  -21040924.59648 -15312735.19047  21113749.2704
  24095629.5084   -6303099.60247  -4418404.50144  24095624.6334
 15  3 17  0 13 30.0000000  0  9G21G27G07G18G19G22G13G16G15
  21868752.6884  -17965335.69848 -13274462.06046  21868746.5864
  20924984.5234  -22044338.29048 -17123721.04847  20924981.3954
  24263482.7424   -6968542.35946  -5052444.96744  24263478.6764
  21370820.1884  -22239949.76048 -16902796.58947  21370815.2074
  22949884.9224  -12395252.07547  -9607147.51345  22949878.0514
  22378167.8674  -15342992.24347 -11899412.83546  22378161.3134
  24644206.5784   -3292928.83446   -798951.22542  24644201.4304
  21121122.8914  -21002206.41548 -15282565.18347  21121117.1024
  24089227.0004   -6336746.47947  -4444622.81844  24089221.9964
 15  3 17  0 14  0.0000000  0  9G21G27G07G18G19G22G13G16G15
  21878810.8134  -17912480.49548 -13233276.19646  21878804.7894
  20914604.2034  -22098888.09148 -17166227.37347  20914600.9654
  24263958.3914   -6966048.25546  -5050501.46944  24263953.3324
  21365433.8914  -22268256.19748 -16924853.54447  21365428.2424
  22932176.5784  -12488308.60147  -9679659.07445  22932170.3594
  22361331.6954  -15431466.25147 -11968353.58546  22361324.9344
  24644012.8754   -3293944.69245   -799742.82042  24644008.1254
  21128600.8054  -20962909.22848 -15251944.00547  21128595.2234
  24082923.8054   -6369872.20947  -4470435.03444  24082918.4734
 15  3 17  0 14 30.0000000  0  9G21G27G07G18G19G22G13G16G15
  21888915.9614  -17859378.62948 -13191898.13746  21888909.8984
  20904292.0784  -22153077.67748 -17208453.01647  20904289.0944
  24264541.7664   -6962980.89046  -5048111.30544  24264536.9964
  21360141.3524  -22296067.16948 -16946524.41847  21360135.5744
  22914504.8444  -12581176.28947  -9752023.47845  22914497.9774
  22344553.5084  -15519635.96948 -12037057.21546  22344546.9104
  24643933.5634   -3294367.39446   -800072.21442  24643927.9734
  21136188.7664  -20923034.25548 -15220872.59247  21136183.1454
  24076719.1174   -6402475.02946  -4495839.76344  24076714.7854
 15  3 17  0 15  0.0000000  0  9G21G27G07G18G19G22G13G16G15
  21899067.7034  -17806030.16548 -13150327.92046  21899061.6174
  20894049.5704  -22206904.74248 -17250396.17647  20894046.1644
  24265233.8524   -6959339.60446  -5045273.93044  24265229.4534
  21354944.0784  -22323381.22448 -16967808.07747  21354938.2154
  22896868.1174  -12673852.80047  -9824238.91945  22896861.7464
  22327833.8284  -15607498.56048 -12105521.53546  22327826.9884
  24643966.1644   -3294195.78445   -799938.48242  24643960.8324
  21143886.5944  -20882582.26448 -15189351.57647  21143880.9184
  24070613.9454   -6434552.55346  -4520835.16844  24070610.4534
 15  3 17  0 15 30.0000000  0 10G21G30G27G07G18G19G22G13G16G15
  21909266.1644  -17752437.03548 -13108567.04446  21909259.9844
  25229303.922     -553753.99015
  20883875.5394  -22260368.36148 -17292056.14447  20883872.2934
  24266036.4064   -6955125.37246  -5041990.08544  24266031.3674
  21349840.7114  -22350198.32848 -16988704.51247  21349834.9344
  22879268.5164  -12766336.95747  -9896304.46745  22879262.1454
  22311172.7114  -15695051.79948 -12173744.79046  22311166.0394
  24644111.7344   -3293430.25246   -799341.95342  24644106.2504
  21151693.8674  -20841555.02348 -15157382.32547  21151688.2154
  24064609.2664   -6466103.58446  -4545420.31444  24064606.2894
 15  3 17  0 16  0.0000000  0 10G21G30G27G07G18G19G22G13G16G15
  21919511.1414  -17698600.99448 -13066616.89246  21919505.1334
  25221328.711     -595665.81315
  20873771.0554  -22313467.27448 -17333431.92147  20873767.7624
  24266948.0004   -6950338.92046  -5038260.38044  24266942.8094
  21344831.9614  -22376518.18848 -17009213.46847  21344826.7274
  22861706.8984  -12858627.78547  -9968219.38745  22861700.4454
  22294571.4144  -15782294.22548 -12241725.88646  22294564.1914
  24644370.4534   -3292070.83645   -798282.65442  24644364.5044
  21159610.2274  -20799954.04648 -15124966.01147  21159604.4924
  24058705.5004   -6497127.02346  -4569594.34544  24058703.4144
 15  3 17  0 16 30.0000000  0 10G21G30G27G07G18G19G22G13G16G15
  21929800.9224  -17644526.10748 -13024480.62246  21929794.9224
  25213448.930     -637069.143 5
  20863735.5864  -22366203.66548 -17374525.20347  20863732.2194
  24267966.3284   -6944984.71746  -5034088.23444  24267960.9734
  21339917.8914  -22402343.68448 -17029337.21847  21339912.3984
  22844181.3444  -12950727.18147 -10039985.13045  22844174.3524
  22278028.5164  -15869227.15348 -12309465.79146  22278021.3874
  24644740.9614   -3290121.18946   -796763.49542  24644736.1374
  21167634.8364  -20757784.29948 -15092106.48247  21167629.1414
  24052902.7584   -6527624.36046  -4593358.44344  24052898.7854
 15  3 17  0 17  0.0000000  0 10G21G30G27G07G18G19G22G13G16G15
  21940137.7114  -17590205.78148 -12982153.11346  21940131.2934
  25205668.813     -677955.000 5
  20853770.7894  -22418568.36848 -17415328.87547  20853767.9494
  24269094.9384   -6939055.73846  -5029468.24544  24269089.7504
  21335098.9454  -22427667.14148 -17049069.76647  21335093.0044
  22826693.7114  -13042625.84847 -10111594.44245  22826687.2774
  22261546.4224  -15955841.22947 -12376957.24646  22261539.5394
  24645225.2034   -3287573.50046   -794778.29143  24645220.6604
  21175768.9304  -20715039.64648 -15058798.97047  21175763.6174
  24047200.9384   -6557586.97846  -4616705.88544  24047197.1684
 15  3 17  0 17 30.0000000  0 10G21G30G27G07G18G19G22G13G16G15
  21950520.4534  -17535644.97648 -12939638.21046  21950514.4224
  25197985.867     -718325.826 5
  20843876.3444  -22470563.80048 -17455844.78647  20843873.3954
  24270332.5394   -6932556.35646  -5024403.82544  24270326.9534
  21330375.1334  -22452491.03148 -17068413.04247  21330369.2504
  22809243.5474  -13134326.15047 -10183049.20445  22809236.2584
  22245124.6334  -16042137.74047 -12444201.26046  22245117.5044
  24645824.1724   -3284431.53746   -792330.04342  24645818.0084
  21184011.6024  -20671724.84848 -15025047.18347  21184006.0704
  24041600.9614   -6587016.95247  -4639638.30344  24041596.0704
 15  3 17  0 18  0.0000000  0 10G21G30G27G07G18G19G22G13G16G15
  21960949.1174  -17480841.83848 -12896934.46046  21960942.9534
  25190401.227     -758177.175 4
  20834053.2114  -22522185.07948 -17496069.15647  20834050.1294
  24271677.3754   -6925483.79146  -5018892.75844  24271672.6804
  21325746.5554  -22476812.03148 -17087364.44947  21325741.3444
  22791832.5084  -13225823.30547 -10254345.69745  22791825.5514
  22228764.2034  -16128111.43048 -12511193.71346  22228757.3984
  24646535.6414   -3280691.87346   -789416.08243  24646529.6804
  21192362.6644  -20627838.33348 -14990849.92647  21192357.1764
  24036103.4694   -6615909.44547  -4662151.91444  24036097.1684
 15  3 17  0 18 30.0000000  0 10G21G30G27G07G18G19G22G13G16G15
  21971422.4694  -17425803.08248 -12854047.13446  21971416.5824
  25182918.625
  20824300.4144  -22573436.83348 -17536005.57347  20824297.3244
  24273131.8204   -6917844.81046  -5012940.24744  24273125.8244
  21321213.0944  -22500636.28948 -17105928.79047  21321207.7274
  22774458.9304  -13317121.84647 -10325487.39245  22774452.3444
  22212464.5784  -16213766.10547 -12577937.58846  22212457.6524
  24647359.7974   -3276360.45645   -786040.96542  24647354.1054
  21200821.5084  -20583387.46748 -14956212.90347  21200816.0164
  24030707.1024   -6644269.14947  -4684250.38944  24030700.0354
 15  3 17  0 19  0.0000000  0 10G21G30G27G07G18G19G22G13G16G15
  21981941.0394  -17370529.77548 -12810977.02346  21981934.7774
  25175530.820    -2411753.24815
  20814618.4384  -22624317.27248 -17575652.66547  20814615.2154
  24274692.4224   -6909639.85046  -5006546.79044  24274687.8404
  21316774.1024  -22523962.23948 -17124104.84747  21316768.6884
  22757123.1954  -13408219.81847 -10396472.78645  22757116.8674
  22196226.0634  -16299099.86347 -12644431.39746  22196219.2114
  24648296.4694   -3271437.23646   -782204.67943  24648290.9774
  21209387.4924  -20538373.41648 -14921137.05247  21209381.6954
  24025412.0554   -6672094.27547  -4705932.29844  24025405.2544
 15  3 17  0 19 30.0000000  0 10G21G30G27G07G18G19G22G13G16G15
  21992504.5704  -17315016.80448 -12767720.18646  21992498.3984
  25168241.273    -2450049.476 5
  20805008.0784  -22674819.15948 -17615004.77547  20805004.3594
  24276362.9694   -6900863.88646  -4999708.40744  24276357.9184
  21312431.3054  -22546783.68448 -17141887.76647  21312425.8404
  22739827.1334  -13499109.93947 -10467296.23645  22739820.4734
  22180050.2974  -16384103.77948 -12710668.18446  22180043.9774
  24649347.8204   -3265916.16846   -777902.55743  24649341.9654
  21218061.3984  -20492791.68148 -14885618.82947  21218055.6804
  24020219.3134   -6699377.56646  -4727191.96344  24020214.0434
 15  3 17  0 20  0.0000000  0 10G21G30G27G07G18G19G22G13G16G15
  22003113.1884  -17259267.87548 -12724279.47146  22003107.0514
  25161054.250    -2487823.462 6
  20795469.4224  -22724943.55248 -17654062.73747  20795466.3054
  24278141.0164   -6891520.07047  -4992427.51744  24278136.1884
  21308184.5864  -22569102.75748 -17159279.24047  21308179.1214
  22722570.5784  -13589792.99547 -10537958.34545  22722564.2344
  22163936.8594  -16468778.84547 -12776648.72646  22163930.5084
  24650511.4694   -3259799.80646   -773136.56943  24650506.4024
  21226842.6724  -20446646.40648 -14849661.48347  21226836.8674
  24015129.8364   -6726119.94147  -4748030.13444  24015124.7074
 15  3 17  0 20 30.0000000  0 10G21G30G27G07G18G19G22G13G16G15
  22013766.6334  -17203284.37848 -12680655.97346  22013760.5314
  25153965.4144   -2525074.37046   -110606.53653  25153964.0984
  20786003.4384  -22774689.39048 -17692825.73047  20786000.3164
  24280027.0394   -6881609.60346  -4984705.08544  24280021.7114
  21304032.6024  -22590919.85448 -17176279.56347  21304027.2584
  22705353.9454  -13680267.81947 -10608458.17745  22705347.5664
  22147886.9144  -16553123.39948 -12842371.72846  22147880.0314
  24651788.7894   -3253088.77846   -767907.18943  24651782.9534
  21235730.7734  -20399939.87148 -14813266.80247  21235724.8754
  24010144.7194   -6752320.63047  -4768446.20444  24010139.7074
 15  3 17  0 21  0.0000000  0 10G21G30G27G07G18G19G22G13G16G15
  22024464.0784  -17147067.55348 -12636850.66346  22024458.2304
  25146977.2194   -2561800.83546   -139224.55343  25146975.2194
  20776609.4224  -22824055.08248 -17731292.49047  20776606.0204
  24282020.6414   -6871132.64246  -4976541.17544  24282015.2464
  21299976.6564  -22612234.16948 -17192888.10347  21299971.2544
  22688177.3674  -13770532.61247 -10678794.35245  22688170.8954
  22131899.9614  -16637135.38347 -12907835.57546  22131893.4384
  24653178.9384   -3245783.07746   -762214.50943  24653173.2854
  21244725.1174  -20352672.99948 -14776435.48247  21244719.2734
  24005262.7424   -6777978.37647  -4788439.20144  24005256.9414
 15  3 17  0 21 30.0000000  0 10G21G30G27G07G18G19G22G13G16G15
  22035206.0004  -17090618.06848 -12592864.07046  22035200.1684
  25140088.4694   -2598001.49046   -167432.93743  25140085.7154
  20767288.1334  -22873038.91548 -17769461.70947  20767284.7734
  24284121.8284   -6860090.68447  -4967937.05044  24284116.2894
  21296016.3984  -22633045.21248 -17209104.48947  21296011.4184
  22671040.2974  -13860585.92547 -10748965.74845  22671034.3164
  22115976.8204  -16720812.46348 -12973038.45246  22115970.0124
  24654681.7504   -3237882.59346   -756058.30643  24654676.9184
  21253826.2034  -20304846.88648 -14739168.39547  21253820.4924
  24000483.6484   -6803090.98047  -4808007.44844  24000478.7664
 15  3 17  0 22  0.0000000  0 10G21G30G27G07G18G19G22G13G16G15
  22045991.8834  -17033936.63248 -12548696.73246  22045986.3794
  25133299.2894   -2633674.69946   -195230.26443  25133297.5664
  20758039.9534  -22921639.14148 -17807332.01247  20758036.6414
  24286330.1644   -6848483.95946  -4958892.84444  24286324.9144
  21292152.3134  -22653351.96948 -17224927.92447  21292146.6954
  22653944.5864  -13950425.71247 -10818970.76246  22653938.0164
  22100117.8754  -16804151.99748 -13037978.31846  22100110.6644
  24656298.6484   -3229387.37846   -749438.68643  24656293.7034
  21263033.1484  -20256462.86348 -14701466.55747  21263027.7304
  23995808.1884   -6827657.07947  -4827149.82244  23995803.7034
 15  3 17  0 22 30.0000000  0 10G21G30G27G07G18G19G22G13G16G15
  22056822.3524  -16977025.14148 -12504350.12646  22056816.1604
  25126611.5944   -2668819.85046   -222616.02543  25126609.7584
  20748864.8444  -22969854.85249 -17844902.69347  20748861.5004
  24288646.2814   -6836313.43246  -4949409.24544  24288641.5664
  21288383.4224  -22673154.86048 -17240358.73047  21288378.4494
  22636889.9924  -14040050.88947 -10888808.53246  22636882.8634
  22084323.3364  -16887152.60248 -13102654.08246  22084316.4924
  24658027.8524   -3220297.70146   -742355.89243  24658023.6454
  21272346.3364  -20207523.33048 -14663331.87647  21272340.6564
  23991237.7584   -6851675.78546  -4845865.66244  23991233.3364
 15  3 17  0 23  0.0000000  0 10G21G30G27G07G18G19G22G13G16G15
  22067695.9144  -16919883.83748 -12459824.43746  22067689.7424
  25120025.1024   -2703435.50045   -249589.22042  25120023.2424
  20739763.0554  -23017684.14248 -17882172.26447  20739759.6564
  24291069.6174   -6823579.38746  -4939486.60244  24291064.8954
  21284711.3754  -22692453.29948 -17255396.46647  21284705.8954
  22619875.6954  -14129459.32047 -10958477.41346  22619869.3404
  22068593.9384  -16969811.86848 -13167063.86046  22068586.7074
  24659871.0314   -3210613.49446   -734809.83243  24659865.6174
  21281764.2194  -20158029.45148 -14624765.24147  21281759.0004
  23986771.9924   -6875145.57647  -4864153.77444  23986767.5124
 15  3 17  0 23 30.0000000  0 10G21G30G27G07G18G19G22G13G16G15
  22078612.8204  -16862513.97048 -12415120.65846  22078607.1094
  25113538.2274   -2737520.62845   -276149.01342  25113536.6254
  20730735.1254  -23065125.55748 -17919139.59047  20730731.9454
  24293598.8914   -6810283.57446  -4929126.23144  24293594.4024
  21281134.9924  -22711246.62748 -17270040.59747  21281129.6684
  22602903.4454  -14218649.31347 -11027976.07246  22602896.9224
  22052929.3834  -17052127.52548 -13231205.89346  22052922.4924
  24661826.6334   -3200335.02446   -726800.62243  24661821.7664
  21291288.1724  -20107982.44548 -14585767.58947  21291282.8204
  23982409.8834   -6898065.05946  -4882013.07644  23982405.8134
 15  3 17  0 24  0.0000000  0 10G21G30G27G07G18G19G22G13G16G15
  22089574.2814  -16804913.64448 -12370237.29646  22089567.9804
  25107154.9144                                   25107153.4344
  20721781.9384  -23112174.93848 -17955801.43648  20721779.0084
  24296236.6804   -6796423.92546  -4918326.57144  24296231.3594
  21277655.4844  -22729532.09348 -17284288.99847  21277650.0744
  22585973.7194  -14307616.68648 -11097301.27646  22585966.1414
  22037331.8054  -17134094.86348 -13295076.51746  22037324.4494
  24663897.2504   -3189459.66846   -718326.36043  24663891.1134
  21300917.2194  -20057381.47548 -14546338.27547  21300911.6564
  23978154.7664   -6920430.50046  -4899440.67744  23978149.4144
 15  3 17  0 24 30.0000000  0 10G21G30G27G07G18G19G22G13G16G15
  22100576.7424  -16747092.41948 -12325181.81046  22100571.3634
  25100869.7344   -4379514.81855  -1555624.82352  25100868.7464
  20712902.2034  -23158839.42648 -17992163.36447  20712898.9344
  24298979.8524   -6782009.61446  -4907094.68244  24298974.9224
  21274271.0784  -22747317.97548 -17298148.10547  21274265.5514
  22569084.3984  -14396368.48547 -11166458.50946  22569077.7344
  22021798.4534  -17215720.76148 -13358681.08746  22021791.5354
  24666078.3914   -3177996.59046   -709394.13543  24666072.2034
  21310649.5634  -20006236.82748 -14506485.32447  21310644.0704
  23974002.3754   -6942249.03247  -4916442.08344  23973997.5664
 15  3 17  0 25  0.0000000  0 10G21G30G27G07G18G19G22G13G16G15
  22111623.3204  -16689042.47948 -12279948.10746  22111617.7034
  25094683.8444   -4412001.56755  -1580939.30752  25094688.2074
  20704097.0554  -23205108.57849 -18028217.24547  20704093.9774
  24301829.6174   -6767033.04746  -4895424.70744  24301824.1524
  21270983.2894  -22764594.82248 -17311610.57547  21270978.4304
  22552238.6804  -14484894.17048 -11235439.53046  22552231.4224
  22006332.9614  -17296993.94448 -13422010.80446  22006325.8794
  24668374.0234   -3165936.98646   -699997.07343  24668367.1454
  21320487.1644  -19954541.32548 -14466203.13847  21320481.5704
  23969955.8984   -6963510.66047  -4933009.55944  23969951.3164
 15  3 17  0 25 30.0000000  0 10G21G30G27G07G18G19G22G13G16G15
  22122712.9534  -16630767.16748 -12234538.79046  22122706.8444
  25088607.9694   -4443952.66255  -1605836.21352  25088607.0704
  20695367.7274  -23250983.40449 -18063963.84848  20695364.2304
  24304784.8984   -6751497.27945  -4883318.91344  24304781.4064
  21267792.2194  -22781365.23148 -17324678.42547  21267786.5864
  22535435.8524  -14573194.43348 -11304244.90146  22535428.9144
  21990934.3834  -17377915.15248 -13485066.26346  21990927.2034
  24670780.2504   -3153283.45546   -690137.16143  24670775.5704
  21330428.5704  -19902298.69648 -14425494.61447  21330422.7034
  23966015.9774   -6984216.09947  -4949143.65244  23966011.1604
 15  3 17  0 26  0.0000000  0 10G21G30G27G07G18G19G22G13G16G15
  22133844.5864  -16572267.90548 -12188954.96046  22133839.0864
  25082628.9694   -4475367.28846  -1630315.21342  25082627.8674
  20686713.2274  -23296462.53348 -18099402.11947  20686709.9184
  24307848.2194   -6735403.49646  -4870778.31543  24307843.4654
  21264697.2584  -22797628.62848 -17337351.18547  21264691.8594
  22518676.0164  -14661267.55447 -11372873.29846  22518668.9264
  21975602.5004  -17458482.07048 -13547845.65146  21975595.7234
  24673301.9454   -3140036.33146   -679814.79743  24673296.6644
  21340473.7974  -19849510.87248 -14384361.27747  21340468.0864
  23962182.5004   -7004364.55846  -4964843.70044  23962177.2704
 15  3 17  0 26 30.0000000  0 10G21G30G27G07G18G19G22G13G16G15
  22145019.5864  -16513546.94548 -12143198.37346  22145013.5204
  25076753.4454   -4506245.64446  -1654376.17642  25076751.0044
  20678134.3364  -23341545.91549 -18134532.02847  20678130.8674
  24311015.6174   -6718754.07246  -4857804.71544  24311011.3444
  21261698.5704  -22813386.63748 -17349630.13847  21261693.2814
  22501959.4924  -14749113.54447 -11441324.70046  22501952.5354
  21960339.0234  -17538693.96748 -13610348.39646  21960332.0044
  24675935.4924   -3126197.69546   -669031.42143  24675930.1884
  21350622.3204  -19796181.01648 -14342805.55647  21350616.8014
  23958453.4774   -7023956.42646  -4980110.05044  23958449.2814
 15  3 17  0 27  0.0000000  0 10G21G30G27G07G18G19G22G13G16G15
  22156235.5084  -16454604.27148 -12097269.04046  22156230.0084
  25070980.2894   -4536585.98446  -1678018.02443  25070977.4264
  20669630.7114  -23386231.13549 -18169351.68047  20669627.3874
  24314291.0634   -6701549.28046  -4844398.38244  24314284.9024
  21258796.5314  -22828637.64548 -17361514.03147  21258791.0634
  22485286.3674  -14836729.70647 -11509597.00546  22485279.7974
  21945143.1564  -17618547.94348 -13672572.26346  21945136.2464
  24678681.4774   -3111766.99646   -657786.72343  24678676.1884
  21360873.7034  -19742309.75748 -14300827.98147  21360867.9804
  23954831.5314   -7042989.46946  -4994940.97344  23954826.5084
 15  3 17  0 27 30.0000000  0 10G21G30G27G07G18G19G22G13G16G15
  22167494.4774  -16395440.51348 -12051167.42946  22167488.6524
  25065309.1804   -4566386.71846  -1701239.40842  25065306.7194
  20661203.6804  -23430516.15549 -18203859.48448  20661200.5004
  24317670.8754   -6683789.33246  -4830559.46844  24317664.5434
  21255990.7734  -22843380.86448 -17373002.24847  21255985.2934
  22468657.5554  -14924113.81748 -11577688.49646  22468650.7624
  21930016.0634  -17698041.78648 -13734515.49746  21930009.4774
  24681540.5864   -3096743.65346   -646080.20843  24681534.7344
  21371227.7194  -19687898.32248 -14258429.49347  21371222.4694
  23951316.7584   -7061462.18047  -5009335.24744  23951311.3914
 15  3 17  0 28  0.0000000  0 10G21G30G27G07G18G19G22G13G16G15
  22178794.0234  -16336057.27448 -12004894.77846  22178788.2624
  25059740.8054   -4595647.60246  -1724040.05043  25059739.2384
  20652852.7584  -23474400.32849 -18238054.94547  20652849.4964
  24321155.6334   -6665476.36546  -4816289.65743  24321149.0824
  21253281.7034  -22857617.10748 -17384095.39547  21253276.1644
  22452073.3754  -15011264.68448 -11645598.25946  22452066.7624
  21914957.4064  -17777174.15648 -13796177.07046  21914950.9064
  24684510.5164   -3081129.15546   -633912.99243  24684505.6094
  21381684.2424  -19632949.23648 -14215612.04447  21381678.5084
  23947908.5004   -7079374.05347  -5023292.53544  23947903.0554
 15  3 17  0 28 30.0000000  0 10G21G30G27G07G18G19G22G13G16G15
  22190136.5554  -16276454.34748 -11958450.95346  22190130.6724
  25054276.0554   -4624366.77345  -1746418.70043  25054273.7194
  20644578.5864  -23517881.22449 -18271936.16347  20644575.4064
  24324745.9614   -6646610.25246  -4801588.74343  24324739.6134
  21250669.1024  -22871344.98948 -17394792.44147  21250663.5784
  22435534.3594  -15098179.79747 -11713324.29946  22435527.2234
  21899968.4144  -17855942.12048 -13857554.68946  21899961.3054
  24687595.0234   -3064923.07346   -621284.89743  24687589.7504
  21392242.8524  -19577463.28548 -14172376.27147  21392237.5904
  23944607.2584   -7096723.20247  -5036811.31844  23944601.8444
 15  3 17  0 29  0.0000000  0 10G21G30G27G07G18G19G22G13G16G15
  22201520.0704  -16216633.85948 -11911837.60346  22201513.9884
  25048913.8984   -4652544.25546  -1768375.15943  25048911.8714
  20636381.4844  -23560958.33949 -18305502.75048  20636377.9734
  24328439.9064   -6627193.35246  -4786458.70844  24328434.7304
  21248153.6094  -22884565.89848 -17405094.43147  21248147.9614
  22419039.9454  -15184858.50648 -11780866.13446  22419033.2894
  21885049.0314  -17934344.15448 -13918647.15546  21885041.9844
  24690791.4454   -3048126.57646   -608196.73142  24690786.0594
  21402903.4384  -19521443.25648 -14128724.32747  21402897.9844
  23941411.8674   -7113509.33247  -5049891.40044  23941407.5554
 15  3 17  0 29 30.0000000  0 10G21G30G27G07G18G19G22G13G16G15
  22212944.5554  -16156595.81748 -11865054.71546  22212938.7194
  25043655.0864   -4680178.26146  -1789908.20543  25043653.0664
  20628261.2274  -23603629.27649 -18338752.82748  20628257.7734
  24332239.8524   -6607225.64046  -4770899.41744  24332235.2774
  21245734.8054  -22897278.17848 -17415000.09247  21245729.0984
  22402590.5864  -15271298.32048 -11848221.81346  22402584.2274
  21870199.5784  -18012377.62948 -13979452.42746  21870193.1844
  24694100.1484   -3030739.44546   -594648.35643  24694095.3554
  21413664.9304  -19464889.78848 -14084656.70847  21413659.1564
  23938325.4064   -7129730.53846  -5062531.27044  23938320.7384
 15  3 17  0 30  0.0000000  0 10G21G30G27G07G18G19G22G13G16G15
  22224410.8674  -16096342.44848 -11818104.05546  22224404.7584
  25038499.7664   -4707269.02045  -1811017.86343  25038497.7934
  20620218.7034  -23645893.80249 -18371686.22747  20620215.2734
  24336145.1644   -6586709.53346  -4754912.84844  24336138.9344
  21243412.2034  -22909482.93348 -17424510.28347  21243406.6414
  22386187.4064  -15357498.80348 -11915391.00146  22386181.0554
  21855421.1174  -18090041.71648 -14039969.87746  21855413.8364
  24697521.2504   -3012763.15846   -580640.87443  24697516.1294
  21424527.3204  -19407806.05448 -14040175.90147  21424522.3284
  23935346.6174   -7145386.68846  -5074730.84744  23935341.6254
 15  3 17  0 30 30.0000000  0 10G21G30G27G07G18G19G22G13G16G15
  22235917.6804  -16035873.73748 -11770985.60146  22235911.8014
  25033448.5704   -4733814.92846  -1831702.96743  25033446.6954
  20612253.8754  -23687749.64349 -18404301.17348  20612250.7464
  24340153.0084   -6565645.20046  -4738499.12744  24340147.5164
  21241186.2424  -22921179.36948 -17433624.37747  21241180.7624
  22369829.9614  -15443456.96448 -11982371.35746  22369823.3834
  21840712.5004  -18167333.84848 -14100197.50346  21840705.7074
  24701053.1334   -2994197.56646   -566174.22943  24701049.1954
  21435490.8594  -19350193.14448 -13995282.74646  21435485.3404
  23932474.2114   -7160476.44046  -5086489.06945  23932470.1174
 15  3 17  0 31  0.0000000  0 10G21G30G27G07G18G19G22G13G16G15
  22247464.8834  -15975191.67748 -11723700.87746  22247459.3484
  25028500.8284   -4759816.03246  -1851963.59343  25028499.0084
  20604366.5784  -23729196.45349 -18436597.39147  20604363.0664
  24344264.8754   -6544034.76546  -4721659.81544  24344260.1724
  21239057.1724  -22932368.30448 -17442343.01647  21239051.5004
  22353518.8834  -15529172.54647 -12049162.70146  22353512.5514
  21826075.2424  -18244253.02348 -14160134.49346  21826068.3364
  24704698.3134   -2975044.23046   -551249.59843  24704693.7504
  21446554.4534  -19292053.68848 -13949979.29747  21446549.3164
  23929710.6254   -7174999.74446  -5097805.91044  23929706.2114
 15  3 17  0 31 30.0000000  0 10G21G30G27G07G18G19G22G13G16G15
  22259055.4454  -15914283.72147 -11676240.16146  22259049.5784
  25023659.9224   -4785257.84346  -1871788.36442  25023656.8594
  20596560.3674  -23770218.89149 -18468562.93348  20596556.8634
  24348482.3754   -6521866.28445  -4704385.62044  24348478.9574
  21237026.8914  -22943036.28348 -17450655.71447  21237021.6644
  22337256.9694  -15614629.73148 -12115752.71246  22337250.1254
  21811512.1024  -18320783.36648 -14219768.51046  21811505.4924
  24708458.1724   -2955289.73746   -535856.58143  24708452.9224
  21457720.3444  -19233375.77548 -13904256.27047  21457715.2504
  23927057.2424   -7188941.79846  -5108669.80744  23927052.9104
 15  3 17  0 32  0.0000000  0 10G21G30G27G07G18G19G22G13G16G15
  22270683.8284  -15853174.64548 -11628622.71546  22270678.2664
  25018919.6644   -4810163.47846  -1891195.35443  25018918.5274
  20588830.4614  -23810839.70048 -18500215.52047  20588827.1684
  24352802.2734   -6499164.86246  -4686696.23044  24352798.7194
  21235091.4924  -22953206.75748 -17458580.74747  21235086.0234
  22321039.5784  -15699851.16548 -12182158.99946  22321033.4144
  21797018.4224  -18396947.24248 -14279116.96046  21797011.9614
  24712326.9694   -2934959.31546   -520014.78343  24712321.7274
  21468983.9614  -19174185.57348 -13858134.05146  21468978.6454
  23924510.7584   -7202326.01346  -5119099.03644  23924506.2304
 15  3 17  0 32 30.0000000  0 10G21G30G27G07G18G19G22G13G16G15
  22282353.1724  -15791855.02648 -11580841.20146  22282346.8754
  25014285.1484   -4834521.75646  -1910175.82743  25014282.6844
  20581179.3284  -23851046.77449 -18531545.71148  20581176.2074
  24357226.0634   -6475920.88346  -4668584.06643  24357220.8794
  21233253.0314  -22962869.53848 -17466110.17447  21233247.2974
  22304869.8364  -15784824.27848 -12248371.79946  22304863.2194
  21782597.1024  -18472731.89248 -14338169.89646  21782589.9964
  24716306.7504   -2914042.49346   -503715.98843  24716301.9494
  21480346.8524  -19114474.11848 -13811605.66747  21480341.4304
  23922072.4774   -7215140.30346  -5129084.18544  23922067.7154
 15  3 17  0 33  0.0000000  0 10G21G30G27G07G18G19G22G13G16G15
  22294061.8054  -15730324.39747 -11532895.26346  22294055.5944
  25009754.4064   -4858330.59746  -1928728.17743  25009751.6524
  20573607.5234  -23890837.47849 -18562551.44848  20573604.1564
  24361753.3984   -6452134.28346  -4650049.09944  24361747.7704
  21231511.1174  -22972023.21048 -17473242.89247  21231505.6564
  22288748.0634  -15869546.19948 -12314388.87046  22288741.4224
  21768249.0474  -18548134.05448 -14396924.80346  21768241.4344
  24720398.8674   -2892538.73446   -486959.81343  24720394.4384
  21491808.7114  -19054242.19948 -13764671.71546  21491803.3244
  23919743.2814   -7227382.87246  -5138623.83444  23919737.4844
 15  3 17  0 33 30.0000000  0 10G21G30G27G07G18G19G22G13G16G15
  22305810.2344  -15668585.06647 -11484786.70746  22305804.5004
  25005327.7114   -4881590.67046  -1946852.88943  25005325.8484
  20566114.7274  -23930211.85549 -18593232.78348  20566111.3204
  24366381.6254   -6427808.34246  -4631093.79844  24366376.7584
  21229865.4924  -22980669.07448 -17479979.91347  21229860.0864
  22272673.4844  -15954016.60448 -12380209.96046  22272666.9614
  21753973.1484  -18623153.74848 -14455381.69146  21753965.8204
  24724602.1174   -2870450.26346   -469748.05443  24724597.1764
  21503368.6254  -18993493.05548 -13717334.74546  21503363.3284
  23917521.9224   -7239054.31746  -5147718.41844  23917516.5634
 15  3 17  0 34  0.0000000  0 10G21G30G27G07G18G19G22G13G16G15
  22317598.7274  -15606637.39048 -11436515.81946  22317592.7274
  25001006.2504   -4904300.43646  -1964548.77843  25001004.3284
  20558701.6334  -23969167.65449 -18623587.94048  20558698.1094
  24371113.5864   -6402943.28946  -4611718.39844  24371108.9844
  21228316.9844  -22988806.19548 -17486320.51347  21228311.7504
  22256648.0234  -16038233.05648 -12445833.14946  22256641.4064
  21739770.6094  -18697787.77148 -14513538.04246  21739763.4344
  24728916.7664   -2847777.07545   -452080.71143  24728911.5904
  21515027.2034  -18932228.09648 -13669595.84046  21515021.9654
  23915410.0314   -7250152.98046  -5156366.69244  23915405.1684
 15  3 17  0 34 30.0000000  0 10G21G30G27G07G18G19G22G13G16G15
  22329426.7274  -15544481.66548 -11388082.79546  22329420.4224
  24996789.7274   -4926458.77746  -1981815.03243  24996787.3444
  20551368.5554  -24007702.94249 -18653615.43448  20551365.5124
  24375948.5864   -6377539.82646  -4591923.46944  24375942.4964
  21226865.7424  -22996434.30748 -17492264.49147  21226860.0164
  22240670.6564  -16122193.12648 -12511256.57946  22240663.8054
  21725641.7194  -18772033.77548 -14571392.04446  21725634.8524
  24733342.8134   -2824519.16945   -433957.66942  24733338.2624
  21526783.2424  -18870448.54748 -13621455.95846  21526777.6684
  23913407.3984   -7260677.45046  -5164567.56644  23913401.9844
 15  3 17  0 35  0.0000000  0 10G21G30G27G07G18G19G22G13G16G15
  22341293.3444  -15482119.99148 -11339489.29546  22341287.1994
  24992678.0634   -4948066.14446  -1998651.94743  24992675.1844
  20544115.7194  -24045817.48648 -18683315.06848  20544112.6454
  24380883.5474   -6351600.81946  -4571711.29143  24380878.3954
  21225510.7114  -23003554.40848 -17497812.61047  21225505.1604
  22224742.3134  -16205896.42248 -12576479.90046  22224735.5784
  21711587.1724  -18845891.03448 -14628943.14246  21711580.0044
  24737879.0554   -2800678.11645   -415380.23542  24737874.8984
  21538637.0394  -18808157.58848 -13572917.58347  21538631.8674
  23911513.7504   -7270628.26746  -5172321.43944  23911509.0274
 15  3 17  0 35 30.0000000  0 10G21G30G27G07G18G19G22G13G16G15
  22353199.8134  -15419552.52448 -11290735.44146  22353193.6564
  24988671.2974   -4969121.10246  -2015058.41843  24988668.9654
  20536943.3054  -24083509.13949 -18712685.19048  20536939.9064
  24385921.1954   -6325126.74746  -4551082.15143  24385916.3594
  21224252.3984  -23010165.95948 -17502964.45647  21224247.0084
  22208863.7814  -16289340.27448 -12641501.07646  22208856.8524
  21697607.2424  -18919356.97048 -14686189.31346  21697600.0004
  24742526.9614   -2776254.46345   -396348.78542  24742522.8204
  21550587.7664  -18745356.26748 -13523981.50546  21550582.1644
  23909728.9774   -7280003.54347  -5179626.80144  23909724.4494
 15  3 17  0 36  0.0000000  0 10G21G30G27G07G18G19G22G13G16G15
  22365144.9924  -15356779.91648 -11241821.74046  22365139.2114
  24984769.0554   -4989622.69146  -2031033.69943  24984767.4344
  20529851.7034  -24120776.08349 -18741724.37348  20529848.0864
  24391062.1954   -6298118.06346  -4530036.39243  24391056.2664
  21223091.1564  -23016268.55448 -17507719.71447  21223085.7584
  22193034.3984  -16372522.56248 -12706318.43246  22193028.0634
  21683702.0084  -18992429.28648 -14743128.75246  21683695.0784
  24747286.0784   -2751248.57345   -376863.74443  24747281.4964
  21562635.3054  -18682046.43648 -13474649.19946  21562629.6604
  23908054.1644   -7288802.58746  -5186483.18645  23908050.5124
 15  3 17  0 36 30.0000000  0 11G21G30G27G07G18G19G04G22G13G16G15
  22377127.5944  -15293810.74147 -11192754.86546  22377121.5204
  24980972.5944   -5009578.03646  -2046583.26943  24980970.5824
  20522839.3754  -24157624.81648 -18770437.66348  20522835.9774
  24396301.3914   -6270584.74546  -4508581.84444  24396296.7114
  21222025.5944  -23021870.26948 -17512084.67147  21222019.8164
  22177254.0784  -16455449.56648 -12770936.86046  22177247.3014
  25150204.773     -267608.75215
  21669870.3444  -19065113.98548 -14799766.15046  21669863.7974
  24752153.7344   -2725668.94045   -356931.65142  24752149.1804
  21574777.7344  -18618238.19648 -13424928.51246  21574771.9734
  23906489.1334   -7297032.36346  -5192895.96344  23906484.6334
 15  3 17  0 37  0.0000000  0 11G21G30G27G07G18G19G04G22G13G16G15
  22389149.0944  -15230636.99048 -11143528.59546  22389143.1334
  24977280.8444   -5028977.65946  -2061699.87943  24977279.3634
  20515908.8984  -24194044.92948 -18798816.98548  20515905.6564
  24401641.3594   -6242519.04846  -4486712.55444  24401636.1914
  21221056.0944  -23026962.11248 -17516052.32747  21221050.6024
  22161524.0634  -16538110.32347 -12835347.82346  22161517.6954
  25129174.922     -378125.503 5
  21656114.9144  -19137400.36448 -14856093.17046  21656107.8594
  24757131.8134   -2699507.33545   -336545.95142  24757127.2274
  21587016.3754  -18553923.87148 -13374813.48346  21587010.7504
  23905032.7584   -7304683.10146  -5198857.56345  23905028.1884
 15  3 17  0 37 30.0000000  0 11G21G30G27G07G18G19G04G22G13G16G15
  22401210.1644  -15167255.44948 -11094140.39746  22401204.1954
  24973696.0634   -5047816.69346  -2076379.61343  24973693.7234
  20509060.9144  -24230030.75648 -18826857.89248  20509058.0314
  24407083.5394   -6213918.06646  -4464426.09943  24407078.2194
  21220185.1094  -23031539.83548 -17519619.37747  21220179.5354
  22145846.2194  -16620498.91748 -12899546.71746  22145839.6764
  25108155.016     -488580.873 5
  21642436.2194  -19209282.21548 -14912104.96146  21642429.1454
  24762222.1174   -2672760.76145   -315704.46442  24762217.1414
  21599351.5474  -18489101.78848 -13324302.78946  21599346.0084
  23903687.6724   -7311750.05147  -5204364.24645  23903684.0514
 15  3 17  0 38  0.0000000  0 11G21G30G27G07G18G19G04G22G13G16G15
  22413309.4224  -15103672.65248 -11044595.39346  22413303.8014
  24970217.1954   -5066100.28246  -2090626.53543  24970214.5824
  20502295.0234  -24265586.60649 -18854563.74848  20502291.8284
  24412627.2114   -6184789.02346  -4441728.14243  24412621.3364
  21219410.3914  -23035609.58248 -17522790.59647  21219405.1994
  22130219.1564  -16702619.06648 -12963536.43546  22130212.4774
  25087147.617     -598979.478 5
  21628833.7344  -19280763.43348 -14967804.57346  21628826.8444
  24767421.1254   -2645435.30245   -294411.90442  24767417.7774
  21611781.8134  -18423779.69048 -13273402.47046  21611776.6414
  23902452.9924   -7318237.83747  -5209419.63344  23902448.9574
 15  3 17  0 38 30.0000000  0 11G21G30G27G07G18G19G04G22G13G16G15
  22425447.3054  -15039889.81147 -10994894.50146  22425440.9104
  24966842.9534   -5083828.22046  -2104440.49743  24966841.5044
  20495611.0634  -24300711.39548 -18881933.69448  20495607.6414
  24418270.1564   -6155133.92646  -4418620.21644  24418264.9694
  21218732.7814  -23039171.35748 -17525565.99147  21218727.2664
  22114643.1644  -16784469.16348 -13027315.72746  22114636.6644
  25066149.742     -709320.332 5
  21615307.9454  -19351842.08948 -15023190.51747  21615301.0784
  24772733.8984   -2617532.30245   -272669.38542  24772727.9574
  21624307.2274  -18357959.48048 -13222114.02746  21624301.7664
  23901328.6804   -7324146.58947  -5214023.83145  23901324.2854
 15  3 17  0 39  0.0000000  0 11G21G30G27G07G18G19G04G22G13G16G15
  22437622.4844  -14975908.00948 -10945038.55946  22437616.6094
  24963574.8834   -5101000.01846  -2117821.08743  24963573.4804
  20489009.1024  -24335403.84449 -18908966.77148  20489006.0004
  24424013.5704   -6124954.24446  -4395103.51844  24424008.1644
  21218151.6884  -23042225.50448 -17527945.83747  21218146.2504
  22099120.2274  -16866048.15948 -13090883.76146  22099112.9734
  25045164.430     -819602.461 5
  21601858.9304  -19422517.14048 -15078261.97447  21601851.7424
  24778151.328    -2589053.056 4
  21636926.3984  -18291643.39948 -13170439.18346  21636921.2664
  23900315.7974   -7329475.46947  -5218176.18045  23900310.6644
 15  3 17  0 39 30.0000000  0 11G21G30G27G07G18G19G04G22G13G16G15
  22449835.5004  -14911727.72048 -10895027.96846  22449829.7194
  24960414.0474   -5117614.98146  -2130767.83843  24960411.5354
  20482490.0554  -24369662.38249 -18935661.73148  20482487.1994
  24429856.1724   -6094251.19946  -4371179.06344  24429851.2234
  21217666.8834  -23044772.40948 -17529930.43047  21217661.3634
  22083647.5944  -16947353.70848 -13154238.72746  22083641.0744
  25024189.258     -929824.731 5
  21588487.0704  -19492786.07848 -15133016.97646  21588480.0824
  24783680.477   -26191297.86715
  21649640.1484  -18224833.76048 -13118379.74946  21649634.6414
  23899411.2664   -7334223.72547  -5221876.09444  23899406.4884
 15  3 17  0 40  0.0000000  0 11G21G30G27G07G18G19G04G22G13G16G15
  22462086.3364  -14847349.97348 -10844863.50846  22462080.7544
  24957358.4844   -5133672.93346  -2143280.52143  24957356.1214
  20476053.5944  -24403485.91348 -18962017.72748  20476050.4184
  24435797.1484   -6063026.70346  -4346848.25644  24435792.5824
  21217278.8444  -23046812.51948 -17531520.11647  21217273.4384
  22068228.1174  -17028384.17148 -13217379.33246  22068221.3524
  25003225.922    -1039985.684 5
  21575193.0164  -19562647.41848 -15187454.36247  21575185.7344
  24789319.242   -26161668.411 5
  21662447.0634  -18157532.48748 -13065937.21546  21662441.4734
  23898618.1254   -7338391.23047  -5225123.46245  23898613.8014
 15  3 17  0 40 30.0000000  0 11G21G30G27G07G18G19G04G22G13G16G15
  22474374.5314  -14782775.74948 -10794545.96246  22474368.6054
  24954408.9614   -5149173.17246  -2155358.66243  24954406.2034
  20469700.5394  -24436872.72349 -18988033.41948  20469697.3164
  24441837.8594   -6031282.19246  -4322112.24044  24441833.4184
  21216987.2584  -23048345.22048 -17532714.41347  21216981.7974
  22052861.1724  -17109137.32248 -13280303.87046  22052854.3834
  24982275.266    -1150084.366 5
  21561976.6254  -19632099.14648 -15241572.57146  21561969.3134
  24795065.977   -26131465.157 5
  21675347.3134  -18089741.71948 -13013113.25246  21675341.8874
  23897936.3204   -7341976.91647  -5227917.47544  23897931.6764
 15  3 17  0 41  0.0000000  0 11G21G30G27G07G18G19G04G22G13G16G15
  22486699.6254  -14718005.63348 -10744075.76246  22486694.0204
  24951564.7424   -5164115.35446  -2167001.91443  24951562.9494
  20463430.3364  -24469821.66548 -19013707.92848  20463427.0474
  24447978.3204   -5999019.01846  -4296972.12343  24447971.8754
  21216792.0234  -23049371.24348 -17533513.90247  21216786.0664
  22037547.6644  -17189611.98748 -13343011.38246  22037540.9064
  24961336.3984   -1260119.60246    774892.98452  24961332.4774
  21548838.8984  -19701139.68248 -15295370.36346  21548831.7344
  24800922.617   -26100689.099 5
  21688340.2114  -18021463.63548 -12959909.56346  21688334.7664
  23897364.8914   -7344980.72546  -5230258.09844  23897359.5664
 15  3 17  0 41 30.0000000  0 11G21G30G27G07G18G19G04G22G13G16G15
  22499062.3524  -14653040.66448 -10693453.73946  22499055.8404
  24948828.0864   -5178498.94246  -2178209.89443  24948826.0124
  20457244.1254  -24502331.18948 -19039040.02948  20457241.0124
  24454215.3674   -5966238.88846  -4271429.21943  24454210.3874
  21216693.4224  -23049890.01648 -17533918.13647  21216687.5354
  22022287.1334  -17269805.61748 -13405499.92546  22022280.6134
  24940409.6094   -1370090.15446    689201.64942  24940406.2624
  21535779.3984  -19769766.74148 -15348845.96246  21535772.1174
  24806888.078   -26069341.323 5
  21701425.1484  -17952700.38748 -12906327.83046  21701419.8714
  23896902.8054   -7347401.57347  -5232144.45344  23896898.5124
 15  3 17  0 42  0.0000000  0 11G21G30G27G07G18G19G04G22G13G16G15
  22511461.5234  -14587881.94748 -10642680.72246  22511455.1454
  24946197.4384   -5192324.10546  -2188982.72643  24946195.0354
  20451141.4694  -24534400.53448 -19064029.13248  20451138.6804
  24460550.9064   -5932943.86046  -4245484.97443  24460545.0904
  21216690.7734  -23049902.86348 -17533928.13047  21216685.1484
  22007080.3594  -17349717.49148 -13467768.90446  22007073.5514
  24919495.8204   -1479995.26246    603561.35643  24919492.7114
  21522799.2344  -19837979.43048 -15401998.68046  21522792.0784
  24812962.922   -26037423.263 5
  21714602.8134  -17883454.46048 -12852369.98546  21714597.3834
  23896553.5944   -7349239.76647  -5233576.79844  23896548.0434
 15  3 17  0 42 30.0000000  0 11G21G30G27G07G18G19G04G22G13G16G15
  22523897.6024  -14522529.99948 -10591757.14946  22523892.0004
  24943673.0084   -5205589.88446  -2199319.71943  24943670.8794
  20445123.2274  -24566027.66148 -19088673.65548  20445119.7074
  24466985.0164   -5899135.15346  -4219140.55943  24466979.5594
  21216784.4924  -23049409.55648 -17533543.72347  21216779.0124
  21991927.7584  -17429344.39748 -13529815.82146  21991921.3134
  24898594.1644   -1589833.17946    517973.32642  24898591.3674
  21509897.5234  -19905775.57648 -15454826.82947  21509890.3284
  24819144.023   -26004935.615 5
